header: 
  seq: 138
  stamp: 
    secs: 1659386767
    nsecs: 447713462
  frame_id: "/dev/input/js0"
axes: [0.0, -0.0, 0.0, -0.0, -0.0, 0.0, 0.0, 0.0]
buttons: [0, 0, 0, 0, 0, 0, 0, 0, 0, 0, 0]
---
header: 
  seq: 139
  stamp: 
    secs: 1659386767
    nsecs: 455673684
  frame_id: "/dev/input/js0"
axes: [0.0, -0.0, 0.0, -0.0, -0.0, 0.0, 0.0, 0.0]
buttons: [0, 0, 0, 0, 0, 0, 0, 0, 0, 0, 0]
---
header: 
  seq: 140
  stamp: 
    secs: 1659386767
    nsecs: 467657250
  frame_id: "/dev/input/js0"
axes: [0.0, -0.0, 0.0, -0.0, -0.0, 0.0, 0.0, 0.0]
buttons: [0, 0, 0, 0, 0, 0, 0, 0, 0, 0, 0]
---
header: 
  seq: 141
  stamp: 
    secs: 1659386767
    nsecs: 539705126
  frame_id: "/dev/input/js0"
axes: [0.0, -0.0, 0.0, -0.0, -0.0, 0.0, 0.0, 0.0]
buttons: [0, 0, 0, 0, 0, 0, 0, 0, 0, 0, 0]
---
header: 
  seq: 142
  stamp: 
    secs: 1659386767
    nsecs: 552631947
  frame_id: "/dev/input/js0"
axes: [0.0, -0.0, 0.0, -0.0, -0.0, 0.0, 0.0, 0.0]
buttons: [0, 0, 0, 0, 0, 0, 0, 0, 0, 0, 0]
---
header: 
  seq: 143
  stamp: 
    secs: 1659386783
    nsecs: 955458363
  frame_id: "/dev/input/js0"
axes: [0.0, -0.0, 0.0, -0.0, -0.0, 0.0, 0.0, 0.0]
buttons: [0, 0, 0, 0, 0, 0, 0, 0, 0, 0, 0]
---
header: 
  seq: 144
  stamp: 
    secs: 1659386783
    nsecs: 971434732
  frame_id: "/dev/input/js0"
axes: [0.0, -0.0, 0.0, -0.0, -0.0, 0.0, 0.0, 0.0]
buttons: [0, 0, 0, 0, 0, 0, 0, 0, 0, 0, 0]
---
header: 
  seq: 145
  stamp: 
    secs: 1659386783
    nsecs: 999430418
  frame_id: "/dev/input/js0"
axes: [0.0, -0.0, 0.0, -0.0, -0.0, 0.0, 0.0, 0.0]
buttons: [0, 0, 0, 0, 0, 0, 0, 0, 0, 0, 0]
---
header: 
  seq: 146
  stamp: 
    secs: 1659386784
    nsecs: 275438810
  frame_id: "/dev/input/js0"
axes: [0.0, -0.0, 0.0, -0.0, -0.0, 0.0, 0.0, 0.0]
buttons: [0, 0, 0, 0, 0, 0, 0, 0, 0, 0, 0]
---
header: 
  seq: 147
  stamp: 
    secs: 1659386797
    nsecs: 239649434
  frame_id: "/dev/input/js0"
axes: [0.0, -0.0, 0.0, -0.0, -0.0, 0.0, 0.0, 1.0]
buttons: [0, 0, 0, 0, 0, 0, 0, 0, 0, 0, 0]
---
header: 
  seq: 148
  stamp: 
    secs: 1659386797
    nsecs: 686566375
  frame_id: "/dev/input/js0"
axes: [0.0, -0.0, 0.0, -0.0, -0.0, 0.0, 0.0, 1.0]
buttons: [1, 0, 0, 0, 0, 0, 0, 0, 0, 0, 0]
---
header: 
  seq: 149
  stamp: 
    secs: 1659386797
    nsecs: 774571487
  frame_id: "/dev/input/js0"
axes: [0.0, -0.0, 0.0, -0.0, -0.0, 0.0, 0.0, 1.0]
buttons: [0, 0, 0, 0, 0, 0, 0, 0, 0, 0, 0]
---
header: 
  seq: 150
  stamp: 
    secs: 1659386797
    nsecs: 866581722
  frame_id: "/dev/input/js0"
axes: [0.0, -0.0, 0.0, -0.0, -0.0, 0.0, 0.0, 1.0]
buttons: [1, 0, 0, 0, 0, 0, 0, 0, 0, 0, 0]
---
header: 
  seq: 151
  stamp: 
    secs: 1659386797
    nsecs: 982574625
  frame_id: "/dev/input/js0"
axes: [0.0, -0.0, 0.0, -0.0, -0.0, 0.0, 0.0, 1.0]
buttons: [0, 0, 0, 0, 0, 0, 0, 0, 0, 0, 0]
---
header: 
  seq: 152
  stamp: 
    secs: 1659386798
    nsecs:  43681413
  frame_id: "/dev/input/js0"
axes: [0.0, -0.0, 0.0, -0.0, -0.0, 0.0, 0.0, -0.0]
buttons: [0, 0, 0, 0, 0, 0, 0, 0, 0, 0, 0]
---
header: 
  seq: 153
  stamp: 
    secs: 1659386800
    nsecs: 971750655
  frame_id: "/dev/input/js0"
axes: [0.0, -0.0, 0.0, -0.0, -0.0, 0.0, 0.0, -0.0]
buttons: [0, 0, 0, 0, 0, 0, 0, 0, 0, 0, 0]
---
header: 
  seq: 154
  stamp: 
    secs: 1659386800
    nsecs: 975739649
  frame_id: "/dev/input/js0"
axes: [0.0, -0.0, 0.0, -0.0, -0.0, 0.0, 0.0, -0.0]
buttons: [0, 0, 0, 0, 0, 0, 0, 0, 0, 0, 0]
---
header: 
  seq: 155
  stamp: 
    secs: 1659386800
    nsecs: 979723417
  frame_id: "/dev/input/js0"
axes: [0.0, -0.0, 0.0, -0.0, -0.0, 0.0, 0.0, -0.0]
buttons: [0, 0, 0, 0, 0, 0, 0, 0, 0, 0, 0]
---
header: 
  seq: 156
  stamp: 
    secs: 1659386800
    nsecs: 983717306
  frame_id: "/dev/input/js0"
axes: [0.0, -0.0, 0.0, -0.0, -0.0, 0.0, 0.0, -0.0]
buttons: [0, 0, 0, 0, 0, 0, 0, 0, 0, 0, 0]
---
header: 
  seq: 157
  stamp: 
    secs: 1659386801
    nsecs:  63847407
  frame_id: "/dev/input/js0"
axes: [0.0, -0.0, 0.0, -0.0, -0.0, 0.0, 0.0, -0.0]
buttons: [0, 0, 0, 0, 0, 0, 0, 0, 0, 0, 0]
---
header: 
  seq: 158
  stamp: 
    secs: 1659386801
    nsecs: 111737686
  frame_id: "/dev/input/js0"
axes: [0.0, -0.0, 0.0, -0.0, -0.0, 0.0, 0.0, -0.0]
buttons: [0, 0, 0, 0, 0, 0, 0, 0, 0, 0, 0]
---
header: 
  seq: 159
  stamp: 
    secs: 1659386801
    nsecs: 119768039
  frame_id: "/dev/input/js0"
axes: [0.0, -0.0, 0.0, -0.0, -0.0, 0.0, 0.0, -0.0]
buttons: [0, 0, 0, 0, 0, 0, 0, 0, 0, 0, 0]
---
header: 
  seq: 160
  stamp: 
    secs: 1659386811
    nsecs: 472122201
  frame_id: "/dev/input/js0"
axes: [-0.0, -0.0, 0.0, -0.0, -0.0, 0.0, 0.0, -0.0]
buttons: [0, 0, 0, 0, 0, 0, 0, 0, 0, 0, 0]
---
header: 
  seq: 161
  stamp: 
    secs: 1659386832
    nsecs: 173268987
  frame_id: "/dev/input/js0"
axes: [-0.0, -0.0, 0.0, -0.0, -0.0, 0.0, 0.0, -0.0]
buttons: [0, 0, 0, 0, 0, 0, 0, 0, 0, 0, 0]
---
header: 
  seq: 162
  stamp: 
    secs: 1659386832
    nsecs: 233365583
  frame_id: "/dev/input/js0"
axes: [-0.0, -0.0, 0.0, -0.0, -0.0, 0.0, 0.0, -0.0]
buttons: [0, 0, 0, 0, 0, 0, 0, 0, 0, 0, 0]
---
header: 
  seq: 163
  stamp: 
    secs: 1659386832
    nsecs: 281279299
  frame_id: "/dev/input/js0"
axes: [-0.0, -0.0, 0.0, -0.0, -0.0, 0.0, 0.0, -0.0]
buttons: [0, 0, 0, 0, 0, 0, 0, 0, 0, 0, 0]
---
header: 
  seq: 164
  stamp: 
    secs: 1659386832
    nsecs: 885350101
  frame_id: "/dev/input/js0"
axes: [-0.0, -0.0, 0.0, -0.0, -0.0, 0.0, 0.0, -0.0]
buttons: [0, 0, 0, 0, 0, 0, 0, 0, 0, 0, 0]
---
header: 
  seq: 165
  stamp: 
    secs: 1659386833
    nsecs:  50601291
  frame_id: "/dev/input/js0"
axes: [-0.0, -0.0, 0.0, -0.0, -0.0, 0.0, -1.0, -0.0]
buttons: [0, 0, 0, 0, 0, 0, 0, 0, 0, 0, 0]
---
header: 
  seq: 166
  stamp: 
    secs: 1659386833
    nsecs: 208282075
  frame_id: "/dev/input/js0"
axes: [-0.0, -0.0, 0.0, -0.0, -0.0, 0.0, -1.0, -0.0]
buttons: [0, 0, 1, 0, 0, 0, 0, 0, 0, 0, 0]
---
header: 
  seq: 167
  stamp: 
    secs: 1659386833
    nsecs: 229329774
  frame_id: "/dev/input/js0"
axes: [-0.0, -0.0, 0.0, -0.0, -0.0, 0.0, -1.0, -0.0]
buttons: [0, 0, 1, 0, 0, 0, 0, 0, 0, 0, 0]
---
header: 
  seq: 168
  stamp: 
    secs: 1659386833
    nsecs: 329458646
  frame_id: "/dev/input/js0"
axes: [-0.0, -0.0, 0.0, -0.0, -0.0, 0.0, -1.0, -0.0]
buttons: [0, 0, 1, 0, 0, 0, 0, 0, 0, 0, 0]
---
header: 
  seq: 169
  stamp: 
    secs: 1659386833
    nsecs: 340361376
  frame_id: "/dev/input/js0"
axes: [-0.0, -0.0, 0.0, -0.0, -0.0, 0.0, -1.0, -0.0]
buttons: [0, 0, 0, 0, 0, 0, 0, 0, 0, 0, 0]
---
header: 
  seq: 170
  stamp: 
    secs: 1659386833
    nsecs: 369350576
  frame_id: "/dev/input/js0"
axes: [-0.0, -0.0, 0.0, -0.0, -0.0, 0.0, -1.0, -0.0]
buttons: [0, 0, 0, 0, 0, 0, 0, 0, 0, 0, 0]
---
header: 
  seq: 171
  stamp: 
    secs: 1659386833
    nsecs: 385347281
  frame_id: "/dev/input/js0"
axes: [-0.0, -0.0, 0.0, -0.0, -0.0, 0.0, -1.0, -0.0]
buttons: [0, 0, 0, 0, 0, 0, 0, 0, 0, 0, 0]
---
header: 
  seq: 172
  stamp: 
    secs: 1659386833
    nsecs: 860318356
  frame_id: "/dev/input/js0"
axes: [-0.0, -0.0, 0.0, -0.0, -0.0, 0.0, -1.0, -0.0]
buttons: [1, 0, 0, 0, 0, 0, 0, 0, 0, 0, 0]
---
header: 
  seq: 173
  stamp: 
    secs: 1659386833
    nsecs: 980319772
  frame_id: "/dev/input/js0"
axes: [-0.0, -0.0, 0.0, -0.0, -0.0, 0.0, -1.0, -0.0]
buttons: [0, 0, 0, 0, 0, 0, 0, 0, 0, 0, 0]
---
header: 
  seq: 174
  stamp: 
    secs: 1659386834
    nsecs:  56338048
  frame_id: "/dev/input/js0"
axes: [-0.0, -0.0, 0.0, -0.0, -0.0, 0.0, -1.0, -0.0]
buttons: [1, 0, 0, 0, 0, 0, 0, 0, 0, 0, 0]
---
header: 
  seq: 175
  stamp: 
    secs: 1659386834
    nsecs: 281409048
  frame_id: "/dev/input/js0"
axes: [-0.0, -0.0, 0.0, -0.0, -0.0, 0.0, -0.0, -0.0]
buttons: [1, 0, 0, 0, 0, 0, 0, 0, 0, 0, 0]
---
header: 
  seq: 176
  stamp: 
    secs: 1659386834
    nsecs: 304347702
  frame_id: "/dev/input/js0"
axes: [-0.0, -0.0, 0.0, -0.0, -0.0, 0.0, -0.0, -0.0]
buttons: [0, 0, 0, 0, 0, 0, 0, 0, 0, 0, 0]
---
header: 
  seq: 177
  stamp: 
    secs: 1659386972
    nsecs: 803045572
  frame_id: "/dev/input/js0"
axes: [-0.0, -0.0, 0.0, -0.0, -0.0, 0.0, -0.0, -0.0]
buttons: [0, 0, 0, 0, 0, 0, 0, 0, 0, 0, 0]
---
header: 
  seq: 178
  stamp: 
    secs: 1659386972
    nsecs: 807031584
  frame_id: "/dev/input/js0"
axes: [-0.0, -0.0, 0.0, -0.0, -0.0, 0.0, -0.0, -0.0]
buttons: [0, 0, 0, 0, 0, 0, 0, 0, 0, 0, 0]
---
header: 
  seq: 179
  stamp: 
    secs: 1659386972
    nsecs: 811027846
  frame_id: "/dev/input/js0"
axes: [-0.0, -0.0, 0.0, -0.0, -0.0, 0.0, -0.0, -0.0]
buttons: [0, 0, 0, 0, 0, 0, 0, 0, 0, 0, 0]
---
header: 
  seq: 180
  stamp: 
    secs: 1659386972
    nsecs: 815029250
  frame_id: "/dev/input/js0"
axes: [-0.0, -0.0, 0.0, -0.0, -0.0, 0.0, -0.0, -0.0]
buttons: [0, 0, 0, 0, 0, 0, 0, 0, 0, 0, 0]
---
header: 
  seq: 181
  stamp: 
    secs: 1659386972
    nsecs: 819037345
  frame_id: "/dev/input/js0"
axes: [-0.0, -0.0, 0.0, -0.0, -0.0, 0.0, -0.0, -0.0]
buttons: [0, 0, 0, 0, 0, 0, 0, 0, 0, 0, 0]
---
header: 
  seq: 182
  stamp: 
    secs: 1659386972
    nsecs: 823059982
  frame_id: "/dev/input/js0"
axes: [-0.0, -0.0, 0.0, -0.0, -0.0, 0.0, -0.0, -0.0]
buttons: [0, 0, 0, 0, 0, 0, 0, 0, 0, 0, 0]
---
header: 
  seq: 183
  stamp: 
    secs: 1659386972
    nsecs: 831132879
  frame_id: "/dev/input/js0"
axes: [-0.0, -0.0, 0.0, -0.0, -0.0, 0.0, -0.0, -0.0]
buttons: [0, 0, 0, 0, 0, 0, 0, 0, 0, 0, 0]
---
header: 
  seq: 184
  stamp: 
    secs: 1659386972
    nsecs: 867081442
  frame_id: "/dev/input/js0"
axes: [-0.0, -0.0, 0.0, -0.0, -0.0, 0.0, -0.0, -0.0]
buttons: [0, 0, 0, 0, 0, 0, 0, 0, 0, 0, 0]
---
header: 
  seq: 185
  stamp: 
    secs: 1659386972
    nsecs: 915060881
  frame_id: "/dev/input/js0"
axes: [-0.0, -0.0, 0.0, -0.0, -0.0, 0.0, -0.0, -0.0]
buttons: [0, 0, 0, 0, 0, 0, 0, 0, 0, 0, 0]
---
header: 
  seq: 186
  stamp: 
    secs: 1659386972
    nsecs: 919104327
  frame_id: "/dev/input/js0"
axes: [-0.0, -0.0, 0.0, -0.0, -0.0, 0.0, -0.0, -0.0]
buttons: [0, 0, 0, 0, 0, 0, 0, 0, 0, 0, 0]
---
header: 
  seq: 187
  stamp: 
    secs: 1659386972
    nsecs: 923068859
  frame_id: "/dev/input/js0"
axes: [-0.0, -0.0, 0.0, -0.0, -0.0, 0.0, -0.0, -0.0]
buttons: [0, 0, 0, 0, 0, 0, 0, 0, 0, 0, 0]
---
header: 
  seq: 188
  stamp: 
    secs: 1659386973
    nsecs: 519245941
  frame_id: "/dev/input/js0"
axes: [-0.0, -0.0, 0.0, -0.0, -0.0, 0.0, -1.0, -0.0]
buttons: [0, 0, 0, 0, 0, 0, 0, 0, 0, 0, 0]
---
header: 
  seq: 189
  stamp: 
    secs: 1659386973
    nsecs: 742139481
  frame_id: "/dev/input/js0"
axes: [-0.0, -0.0, 0.0, -0.0, -0.0, 0.0, -1.0, -0.0]
buttons: [0, 0, 1, 0, 0, 0, 0, 0, 0, 0, 0]
---
header: 
  seq: 190
  stamp: 
    secs: 1659386973
    nsecs: 886122753
  frame_id: "/dev/input/js0"
axes: [-0.0, -0.0, 0.0, -0.0, -0.0, 0.0, -1.0, -0.0]
buttons: [0, 0, 0, 0, 0, 0, 0, 0, 0, 0, 0]
---
header: 
  seq: 191
  stamp: 
    secs: 1659386973
    nsecs: 939237092
  frame_id: "/dev/input/js0"
axes: [-0.0, -0.0, 0.0, -0.0, -0.0, 0.0, -0.0, -0.0]
buttons: [0, 0, 0, 0, 0, 0, 0, 0, 0, 0, 0]
---
header: 
  seq: 192
  stamp: 
    secs: 1659386988
    nsecs: 199760899
  frame_id: "/dev/input/js0"
axes: [-0.0, -0.0, 0.0, -0.0, -0.0, 0.0, -0.0, -0.0]
buttons: [0, 0, 0, 0, 0, 1, 0, 0, 0, 0, 0]
---
header: 
  seq: 193
  stamp: 
    secs: 1659386988
    nsecs: 451870390
  frame_id: "/dev/input/js0"
axes: [-0.0, -0.0, 0.0, -0.0, -0.0, 0.0, -0.0, -0.0]
buttons: [0, 0, 0, 0, 0, 0, 0, 0, 0, 0, 0]
---
header: 
  seq: 194
  stamp: 
    secs: 1659386988
    nsecs: 784897246
  frame_id: "/dev/input/js0"
axes: [-0.0, -0.0, 0.0, -0.0, -0.0, 0.0, -0.0, -0.0]
buttons: [0, 0, 0, 0, 0, 0, 0, 0, 0, 0, 0]
---
header: 
  seq: 195
  stamp: 
    secs: 1659386988
    nsecs: 792887558
  frame_id: "/dev/input/js0"
axes: [-0.0, -0.0, 0.0, -0.0, -0.0, 0.0, -0.0, -0.0]
buttons: [0, 0, 0, 0, 0, 0, 0, 0, 0, 0, 0]
---
header: 
  seq: 196
  stamp: 
    secs: 1659386988
    nsecs: 800877096
  frame_id: "/dev/input/js0"
axes: [-0.0, -0.0, 0.0, -0.0, -0.0, 0.0, -0.0, -0.0]
buttons: [0, 0, 0, 0, 0, 0, 0, 0, 0, 0, 0]
---
header: 
  seq: 197
  stamp: 
    secs: 1659387052
    nsecs: 111877656
  frame_id: "/dev/input/js0"
axes: [-0.0, -0.0, 0.0, -0.0, -0.0, 0.0, -1.0, -0.0]
buttons: [0, 0, 0, 0, 0, 0, 0, 0, 0, 0, 0]
---
header: 
  seq: 198
  stamp: 
    secs: 1659387052
    nsecs: 314827688
  frame_id: "/dev/input/js0"
axes: [-0.0, -0.0, 0.0, -0.0, -0.0, 0.0, -1.0, -0.0]
buttons: [0, 0, 1, 0, 0, 0, 0, 0, 0, 0, 0]
---
header: 
  seq: 199
  stamp: 
    secs: 1659387052
    nsecs: 423899195
  frame_id: "/dev/input/js0"
axes: [-0.0, -0.0, 0.0, -0.0, -0.0, 0.0, -0.0, -0.0]
buttons: [0, 0, 1, 0, 0, 0, 0, 0, 0, 0, 0]
---
header: 
  seq: 200
  stamp: 
    secs: 1659387052
    nsecs: 478854005
  frame_id: "/dev/input/js0"
axes: [-0.0, -0.0, 0.0, -0.0, -0.0, 0.0, -0.0, -0.0]
buttons: [0, 0, 0, 0, 0, 0, 0, 0, 0, 0, 0]
---
header: 
  seq: 201
  stamp: 
    secs: 1659387052
    nsecs: 856005420
  frame_id: "/dev/input/js0"
axes: [-0.0, -0.0, 0.0, -0.0, -0.0, 0.0, -0.0, -0.0]
buttons: [0, 0, 0, 0, 0, 0, 0, 0, 0, 0, 0]
---
header: 
  seq: 202
  stamp: 
    secs: 1659387052
    nsecs: 864151119
  frame_id: "/dev/input/js0"
axes: [-0.0, -0.0, 0.0, -0.0, -0.0, 0.0, -0.0, -0.0]
buttons: [0, 0, 0, 0, 0, 0, 0, 0, 0, 0, 0]
---
header: 
  seq: 203
  stamp: 
    secs: 1659387052
    nsecs: 867985441
  frame_id: "/dev/input/js0"
axes: [-0.0, -0.0, 0.0, -0.0, -0.0, 0.0, -0.0, -0.0]
buttons: [0, 0, 0, 0, 0, 0, 0, 0, 0, 0, 0]
---
header: 
  seq: 204
  stamp: 
    secs: 1659387052
    nsecs: 872030002
  frame_id: "/dev/input/js0"
axes: [-0.0, -0.0, 0.0, -0.0, -0.0, 0.0, -0.0, -0.0]
buttons: [0, 0, 0, 0, 0, 0, 0, 0, 0, 0, 0]
---
header: 
  seq: 205
  stamp: 
    secs: 1659387052
    nsecs: 879966025
  frame_id: "/dev/input/js0"
axes: [-0.0, -0.0, 0.0, -0.0, -0.0, 0.0, -0.0, -0.0]
buttons: [0, 0, 0, 0, 0, 0, 0, 0, 0, 0, 0]
---
header: 
  seq: 206
  stamp: 
    secs: 1659387052
    nsecs: 887950883
  frame_id: "/dev/input/js0"
axes: [-0.0, -0.0, 0.0, -0.0, -0.0, 0.0, -0.0, -0.0]
buttons: [0, 0, 0, 0, 0, 0, 0, 0, 0, 0, 0]
---
header: 
  seq: 207
  stamp: 
    secs: 1659387052
    nsecs: 895969989
  frame_id: "/dev/input/js0"
axes: [-0.0, -0.0, 0.0, -0.0, -0.0, 0.0, -0.0, -0.0]
buttons: [0, 0, 0, 0, 0, 0, 0, 0, 0, 0, 0]
---
header: 
  seq: 208
  stamp: 
    secs: 1659387052
    nsecs: 899951780
  frame_id: "/dev/input/js0"
axes: [-0.006734953261911869, -0.0, 0.0, -0.0, -0.0, 0.0, -0.0, -0.0]
buttons: [0, 0, 0, 0, 0, 0, 0, 0, 0, 0, 0]
---
header: 
  seq: 209
  stamp: 
    secs: 1659387052
    nsecs: 903953210
  frame_id: "/dev/input/js0"
axes: [-0.019231479614973068, -0.0, 0.0, -0.0, -0.0, 0.0, -0.0, -0.0]
buttons: [0, 0, 0, 0, 0, 0, 0, 0, 0, 0, 0]
---
header: 
  seq: 210
  stamp: 
    secs: 1659387052
    nsecs: 907982957
  frame_id: "/dev/input/js0"
axes: [-0.033687613904476166, -0.0, 0.0, -0.0, -0.0, 0.0, -0.0, -0.0]
buttons: [0, 0, 0, 0, 0, 0, 0, 0, 0, 0, 0]
---
header: 
  seq: 211
  stamp: 
    secs: 1659387052
    nsecs: 911944274
  frame_id: "/dev/input/js0"
axes: [-0.057749051600694656, 0.017882240936160088, 0.0, -0.0, -0.0, 0.0, -0.0, -0.0]
buttons: [0, 0, 0, 0, 0, 0, 0, 0, 0, 0, 0]
---
header: 
  seq: 212
  stamp: 
    secs: 1659387052
    nsecs: 915937307
  frame_id: "/dev/input/js0"
axes: [-0.09048416465520859, 0.038474202156066895, 0.0, -0.0, -0.0, 0.0, -0.0, -0.0]
buttons: [0, 0, 0, 0, 0, 0, 0, 0, 0, 0, 0]
---
header: 
  seq: 213
  stamp: 
    secs: 1659387052
    nsecs: 919931560
  frame_id: "/dev/input/js0"
axes: [-0.13382044434547424, 0.06243926286697388, 0.0, -0.0, -0.0, 0.0, -0.0, -0.0]
buttons: [0, 0, 0, 0, 0, 0, 0, 0, 0, 0, 0]
---
header: 
  seq: 214
  stamp: 
    secs: 1659387052
    nsecs: 923935690
  frame_id: "/dev/input/js0"
axes: [-0.18001583218574524, 0.08736807107925415, 0.0, -0.0, -0.0, 0.0, -0.0, -0.0]
buttons: [0, 0, 0, 0, 0, 0, 0, 0, 0, 0, 0]
---
header: 
  seq: 215
  stamp: 
    secs: 1659387052
    nsecs: 927971011
  frame_id: "/dev/input/js0"
axes: [-0.21564218401908875, 0.11563784629106522, 0.0, -0.0, -0.0, 0.0, -0.0, -0.0]
buttons: [0, 0, 0, 0, 0, 0, 0, 0, 0, 0, 0]
---
header: 
  seq: 216
  stamp: 
    secs: 1659387052
    nsecs: 932091140
  frame_id: "/dev/input/js0"
axes: [-0.24934104084968567, 0.14223714172840118, 0.0, -0.0, -0.0, 0.0, -0.0, -0.0]
buttons: [0, 0, 0, 0, 0, 0, 0, 0, 0, 0, 0]
---
header: 
  seq: 217
  stamp: 
    secs: 1659387052
    nsecs: 936024206
  frame_id: "/dev/input/js0"
axes: [-0.27532994747161865, 0.16626644134521484, 0.0, -0.0, -0.0, 0.0, -0.0, -0.0]
buttons: [0, 0, 0, 0, 0, 0, 0, 0, 0, 0, 0]
---
header: 
  seq: 218
  stamp: 
    secs: 1659387052
    nsecs: 940043628
  frame_id: "/dev/input/js0"
axes: [-0.3032463788986206, 0.19113099575042725, 0.0, -0.0, -0.0, 0.0, -0.0, -0.0]
buttons: [0, 0, 0, 0, 0, 0, 0, 0, 0, 0, 0]
---
header: 
  seq: 219
  stamp: 
    secs: 1659387052
    nsecs: 944051898
  frame_id: "/dev/input/js0"
axes: [-0.32637616991996765, 0.21342557668685913, 0.0, -0.0, -0.0, 0.0, -0.0, -0.0]
buttons: [0, 0, 0, 0, 0, 0, 0, 0, 0, 0, 0]
---
header: 
  seq: 220
  stamp: 
    secs: 1659387052
    nsecs: 948042492
  frame_id: "/dev/input/js0"
axes: [-0.35811543464660645, 0.23144756257534027, 0.0, -0.0, -0.0, 0.0, -0.0, -0.0]
buttons: [0, 0, 0, 0, 0, 0, 0, 0, 0, 0, 0]
---
header: 
  seq: 221
  stamp: 
    secs: 1659387052
    nsecs: 952005524
  frame_id: "/dev/input/js0"
axes: [-0.38413646817207336, 0.24343009293079376, 0.0, -0.0, -0.0, 0.0, -0.0, -0.0]
buttons: [0, 0, 0, 0, 0, 0, 0, 0, 0, 0, 0]
---
header: 
  seq: 222
  stamp: 
    secs: 1659387052
    nsecs: 956011567
  frame_id: "/dev/input/js0"
axes: [-0.40627041459083557, 0.25030478835105896, 0.0, -0.0, -0.0, 0.0, -0.0, -0.0]
buttons: [0, 0, 0, 0, 0, 0, 0, 0, 0, 0, 0]
---
header: 
  seq: 223
  stamp: 
    secs: 1659387052
    nsecs: 960052252
  frame_id: "/dev/input/js0"
axes: [-0.4130166172981262, 0.25030478835105896, 0.0, -0.0, -0.0, 0.0, -0.0, -0.0]
buttons: [0, 0, 0, 0, 0, 0, 0, 0, 0, 0, 0]
---
header: 
  seq: 224
  stamp: 
    secs: 1659387052
    nsecs: 972024035
  frame_id: "/dev/input/js0"
axes: [-0.40627041459083557, 0.25030478835105896, 0.0, -0.0, -0.0, 0.0, -0.0, -0.0]
buttons: [0, 0, 0, 0, 0, 0, 0, 0, 0, 0, 0]
---
header: 
  seq: 225
  stamp: 
    secs: 1659387052
    nsecs: 976249613
  frame_id: "/dev/input/js0"
axes: [-0.3668212294578552, 0.23829013109207153, 0.0, -0.0, -0.0, 0.0, -0.0, -0.0]
buttons: [0, 0, 0, 0, 0, 0, 0, 0, 0, 0, 0]
---
header: 
  seq: 226
  stamp: 
    secs: 1659387052
    nsecs: 979970959
  frame_id: "/dev/input/js0"
axes: [-0.2878264784812927, 0.20741824805736542, 0.0, -0.0, -0.0, 0.0, -0.0, -0.0]
buttons: [0, 0, 0, 0, 0, 0, 0, 0, 0, 0, 0]
---
header: 
  seq: 227
  stamp: 
    secs: 1659387052
    nsecs: 983956842
  frame_id: "/dev/input/js0"
axes: [-0.1376754194498062, 0.1165052130818367, 0.0, -0.0, -0.0, 0.0, -0.0, -0.0]
buttons: [0, 0, 0, 0, 0, 0, 0, 0, 0, 0, 0]
---
header: 
  seq: 228
  stamp: 
    secs: 1659387052
    nsecs: 987940130
  frame_id: "/dev/input/js0"
axes: [-0.021158965304493904, 0.03330211713910103, 0.0, -0.0, -0.0, 0.0, -0.0, -0.0]
buttons: [0, 0, 0, 0, 0, 0, 0, 0, 0, 0, 0]
---
header: 
  seq: 229
  stamp: 
    secs: 1659387052
    nsecs: 991970883
  frame_id: "/dev/input/js0"
axes: [-0.0, -0.0, 0.0, -0.0, -0.0, 0.0, -0.0, -0.0]
buttons: [0, 0, 0, 0, 0, 0, 0, 0, 0, 0, 0]
---
header: 
  seq: 230
  stamp: 
    secs: 1659387052
    nsecs: 995977996
  frame_id: "/dev/input/js0"
axes: [-0.0, -0.0, 0.0, -0.0, -0.0, 0.0, -0.0, -0.0]
buttons: [0, 0, 0, 0, 0, 0, 0, 0, 0, 0, 0]
---
header: 
  seq: 231
  stamp: 
    secs: 1659387054
    nsecs: 496151028
  frame_id: "/dev/input/js0"
axes: [-0.0, -0.0, 0.0, -0.0, -0.0, 0.0, 1.0, -0.0]
buttons: [0, 0, 0, 0, 0, 0, 0, 0, 0, 0, 0]
---
header: 
  seq: 232
  stamp: 
    secs: 1659387055
    nsecs: 367196661
  frame_id: "/dev/input/js0"
axes: [-0.0, -0.0, 0.0, -0.0, -0.0, 0.0, 1.0, -0.0]
buttons: [0, 0, 1, 0, 0, 0, 0, 0, 0, 0, 0]
---
header: 
  seq: 233
  stamp: 
    secs: 1659387055
    nsecs: 551235089
  frame_id: "/dev/input/js0"
axes: [-0.0, -0.0, 0.0, -0.0, -0.0, 0.0, 1.0, -0.0]
buttons: [0, 0, 0, 0, 0, 0, 0, 0, 0, 0, 0]
---
header: 
  seq: 234
  stamp: 
    secs: 1659387055
    nsecs: 632309510
  frame_id: "/dev/input/js0"
axes: [-0.0, -0.0, 0.0, -0.0, -0.0, 0.0, -0.0, -0.0]
buttons: [0, 0, 0, 0, 0, 0, 0, 0, 0, 0, 0]
---
header: 
  seq: 235
  stamp: 
    secs: 1659387055
    nsecs: 996328112
  frame_id: "/dev/input/js0"
axes: [-0.0, -0.0, 0.0, -0.0, -0.0, 0.0, 1.0, -0.0]
buttons: [0, 0, 0, 0, 0, 0, 0, 0, 0, 0, 0]
---
header: 
  seq: 236
  stamp: 
    secs: 1659387056
    nsecs:  59355555
  frame_id: "/dev/input/js0"
axes: [-0.0, -0.0, 0.0, -0.0, -0.0, 0.0, 1.0, -0.0]
buttons: [0, 0, 1, 0, 0, 0, 0, 0, 0, 0, 0]
---
header: 
  seq: 237
  stamp: 
    secs: 1659387056
    nsecs: 172372723
  frame_id: "/dev/input/js0"
axes: [-0.0, -0.0, 0.0, -0.0, -0.0, 0.0, -0.0, -0.0]
buttons: [0, 0, 1, 0, 0, 0, 0, 0, 0, 0, 0]
---
header: 
  seq: 238
  stamp: 
    secs: 1659387056
    nsecs: 223264093
  frame_id: "/dev/input/js0"
axes: [-0.0, -0.0, 0.0, -0.0, -0.0, 0.0, -0.0, -0.0]
buttons: [0, 0, 0, 0, 0, 0, 0, 0, 0, 0, 0]
---
header: 
  seq: 239
  stamp: 
    secs: 1659387057
    nsecs: 908532641
  frame_id: "/dev/input/js0"
axes: [-0.0, -0.0, 0.0, -0.0, -0.0, 0.0, -1.0, -0.0]
buttons: [0, 0, 0, 0, 0, 0, 0, 0, 0, 0, 0]
---
header: 
  seq: 240
  stamp: 
    secs: 1659387058
    nsecs:  87475731
  frame_id: "/dev/input/js0"
axes: [-0.0, -0.0, 0.0, -0.0, -0.0, 0.0, -1.0, -0.0]
buttons: [0, 0, 1, 0, 0, 0, 0, 0, 0, 0, 0]
---
header: 
  seq: 241
  stamp: 
    secs: 1659387058
    nsecs: 244671429
  frame_id: "/dev/input/js0"
axes: [-0.0, -0.0, 0.0, -0.0, -0.0, 0.0, -0.0, -0.0]
buttons: [0, 0, 1, 0, 0, 0, 0, 0, 0, 0, 0]
---
header: 
  seq: 242
  stamp: 
    secs: 1659387058
    nsecs: 267514976
  frame_id: "/dev/input/js0"
axes: [-0.0, -0.0, 0.0, -0.0, -0.0, 0.0, -0.0, -0.0]
buttons: [0, 0, 0, 0, 0, 0, 0, 0, 0, 0, 0]
---
header: 
  seq: 243
  stamp: 
    secs: 1659387058
    nsecs: 852651592
  frame_id: "/dev/input/js0"
axes: [-0.0, -0.0, 0.0, -0.0, -0.0, 0.0, 1.0, -0.0]
buttons: [0, 0, 0, 0, 0, 0, 0, 0, 0, 0, 0]
---
header: 
  seq: 244
  stamp: 
    secs: 1659387058
    nsecs: 995573924
  frame_id: "/dev/input/js0"
axes: [-0.0, -0.0, 0.0, -0.0, -0.0, 0.0, 1.0, -0.0]
buttons: [0, 0, 1, 0, 0, 0, 0, 0, 0, 0, 0]
---
header: 
  seq: 245
  stamp: 
    secs: 1659387059
    nsecs: 132708196
  frame_id: "/dev/input/js0"
axes: [-0.0, -0.0, 0.0, -0.0, -0.0, 0.0, -0.0, -0.0]
buttons: [0, 0, 1, 0, 0, 0, 0, 0, 0, 0, 0]
---
header: 
  seq: 246
  stamp: 
    secs: 1659387059
    nsecs: 155593524
  frame_id: "/dev/input/js0"
axes: [-0.0, -0.0, 0.0, -0.0, -0.0, 0.0, -0.0, -0.0]
buttons: [0, 0, 0, 0, 0, 0, 0, 0, 0, 0, 0]
---
header: 
  seq: 247
  stamp: 
    secs: 1659387060
    nsecs:   5056765
  frame_id: "/dev/input/js0"
axes: [-0.0, -0.0, 0.0, -0.0, -0.0, 0.0, -0.0, -0.0]
buttons: [0, 0, 0, 0, 0, 0, 0, 0, 0, 0, 0]
---
header: 
  seq: 248
  stamp: 
    secs: 1659387060
    nsecs:  16750990
  frame_id: "/dev/input/js0"
axes: [-0.0, -0.0, 0.0, -0.0, -0.0, 0.0, -0.0, -0.0]
buttons: [0, 0, 0, 0, 0, 0, 0, 0, 0, 0, 0]
---
header: 
  seq: 249
  stamp: 
    secs: 1659387060
    nsecs:  24734854
  frame_id: "/dev/input/js0"
axes: [-0.0, -0.0, 0.0, -0.0, -0.0, 0.0, -0.0, -0.0]
buttons: [0, 0, 0, 0, 0, 0, 0, 0, 0, 0, 0]
---
header: 
  seq: 250
  stamp: 
    secs: 1659387060
    nsecs:  44755919
  frame_id: "/dev/input/js0"
axes: [-0.0, -0.0, 0.0, -0.0, -0.0, 0.0, -0.0, -0.0]
buttons: [0, 0, 0, 0, 0, 0, 0, 0, 0, 0, 0]
---
header: 
  seq: 251
  stamp: 
    secs: 1659387060
    nsecs:  52797995
  frame_id: "/dev/input/js0"
axes: [-0.0, -0.0, 0.0, -0.0, -0.0, 0.0, -0.0, -0.0]
buttons: [0, 0, 0, 0, 0, 0, 0, 0, 0, 0, 0]
---
header: 
  seq: 252
  stamp: 
    secs: 1659387060
    nsecs: 204773814
  frame_id: "/dev/input/js0"
axes: [-0.0, -0.0, 0.0, -0.0, -0.0, 0.0, -0.0, -0.0]
buttons: [0, 0, 0, 0, 0, 0, 0, 0, 0, 0, 0]
---
header: 
  seq: 253
  stamp: 
    secs: 1659387062
    nsecs: 885084807
  frame_id: "/dev/input/js0"
axes: [-0.0, -0.0, 0.0, -0.0, -0.0, 0.0, -1.0, -0.0]
buttons: [0, 0, 0, 0, 0, 0, 0, 0, 0, 0, 0]
---
header: 
  seq: 254
  stamp: 
    secs: 1659387063
    nsecs:  72064215
  frame_id: "/dev/input/js0"
axes: [-0.0, -0.0, 0.0, -0.0, -0.0, 0.0, -1.0, -0.0]
buttons: [0, 0, 0, 1, 0, 0, 0, 0, 0, 0, 0]
---
header: 
  seq: 255
  stamp: 
    secs: 1659387063
    nsecs: 224055232
  frame_id: "/dev/input/js0"
axes: [-0.0, -0.0, 0.0, -0.0, -0.0, 0.0, -1.0, -0.0]
buttons: [0, 0, 0, 0, 0, 0, 0, 0, 0, 0, 0]
---
header: 
  seq: 256
  stamp: 
    secs: 1659387063
    nsecs: 384074679
  frame_id: "/dev/input/js0"
axes: [-0.0, -0.0, 0.0, -0.0, -0.0, 0.0, -1.0, -0.0]
buttons: [0, 0, 0, 1, 0, 0, 0, 0, 0, 0, 0]
---
header: 
  seq: 257
  stamp: 
    secs: 1659387063
    nsecs: 540090288
  frame_id: "/dev/input/js0"
axes: [-0.0, -0.0, 0.0, -0.0, -0.0, 0.0, -1.0, -0.0]
buttons: [0, 0, 0, 0, 0, 0, 0, 0, 0, 0, 0]
---
header: 
  seq: 258
  stamp: 
    secs: 1659387063
    nsecs: 593159242
  frame_id: "/dev/input/js0"
axes: [-0.0, -0.0, 0.0, -0.0, -0.0, 0.0, -0.0, -0.0]
buttons: [0, 0, 0, 0, 0, 0, 0, 0, 0, 0, 0]
---
header: 
  seq: 259
  stamp: 
    secs: 1659387064
    nsecs: 213243544
  frame_id: "/dev/input/js0"
axes: [-0.0, -0.0, 0.0, -0.0, -0.0, 0.0, -1.0, -0.0]
buttons: [0, 0, 0, 0, 0, 0, 0, 0, 0, 0, 0]
---
header: 
  seq: 260
  stamp: 
    secs: 1659387064
    nsecs: 308183214
  frame_id: "/dev/input/js0"
axes: [-0.0, -0.0, 0.0, -0.0, -0.0, 0.0, -1.0, -0.0]
buttons: [0, 0, 1, 0, 0, 0, 0, 0, 0, 0, 0]
---
header: 
  seq: 261
  stamp: 
    secs: 1659387064
    nsecs: 444222442
  frame_id: "/dev/input/js0"
axes: [-0.0, -0.0, 0.0, -0.0, -0.0, 0.0, -1.0, -0.0]
buttons: [0, 0, 0, 0, 0, 0, 0, 0, 0, 0, 0]
---
header: 
  seq: 262
  stamp: 
    secs: 1659387064
    nsecs: 497253158
  frame_id: "/dev/input/js0"
axes: [-0.0, -0.0, 0.0, -0.0, -0.0, 0.0, -0.0, -0.0]
buttons: [0, 0, 0, 0, 0, 0, 0, 0, 0, 0, 0]
---
header: 
  seq: 263
  stamp: 
    secs: 1659387065
    nsecs: 557421269
  frame_id: "/dev/input/js0"
axes: [-0.0, -0.0, 0.0, -0.0, -0.0, 0.0, -0.0, 1.0]
buttons: [0, 0, 0, 0, 0, 0, 0, 0, 0, 0, 0]
---
header: 
  seq: 264
  stamp: 
    secs: 1659387065
    nsecs: 657395289
  frame_id: "/dev/input/js0"
axes: [-0.0, -0.0, 0.0, -0.0, -0.0, 0.0, 1.0, 1.0]
buttons: [0, 0, 0, 0, 0, 0, 0, 0, 0, 0, 0]
---
header: 
  seq: 265
  stamp: 
    secs: 1659387065
    nsecs: 828365636
  frame_id: "/dev/input/js0"
axes: [-0.0, -0.0, 0.0, -0.0, -0.0, 0.0, 1.0, 1.0]
buttons: [0, 0, 1, 0, 0, 0, 0, 0, 0, 0, 0]
---
header: 
  seq: 266
  stamp: 
    secs: 1659387065
    nsecs: 980369957
  frame_id: "/dev/input/js0"
axes: [-0.0, -0.0, 0.0, -0.0, -0.0, 0.0, 1.0, 1.0]
buttons: [0, 0, 0, 0, 0, 0, 0, 0, 0, 0, 0]
---
header: 
  seq: 267
  stamp: 
    secs: 1659387066
    nsecs: 124366663
  frame_id: "/dev/input/js0"
axes: [-0.0, -0.0, 0.0, -0.0, -0.0, 0.0, 1.0, 1.0]
buttons: [0, 0, 1, 0, 0, 0, 0, 0, 0, 0, 0]
---
header: 
  seq: 268
  stamp: 
    secs: 1659387066
    nsecs: 264392914
  frame_id: "/dev/input/js0"
axes: [-0.0, -0.0, 0.0, -0.0, -0.0, 0.0, 1.0, 1.0]
buttons: [0, 0, 0, 0, 0, 0, 0, 0, 0, 0, 0]
---
header: 
  seq: 269
  stamp: 
    secs: 1659387066
    nsecs: 384418972
  frame_id: "/dev/input/js0"
axes: [-0.0, -0.0, 0.0, -0.0, -0.0, 0.0, 1.0, 1.0]
buttons: [0, 0, 1, 0, 0, 0, 0, 0, 0, 0, 0]
---
header: 
  seq: 270
  stamp: 
    secs: 1659387066
    nsecs: 536417997
  frame_id: "/dev/input/js0"
axes: [-0.0, -0.0, 0.0, -0.0, -0.0, 0.0, 1.0, 1.0]
buttons: [0, 0, 0, 0, 0, 0, 0, 0, 0, 0, 0]
---
header: 
  seq: 271
  stamp: 
    secs: 1659387066
    nsecs: 593502554
  frame_id: "/dev/input/js0"
axes: [-0.0, -0.0, 0.0, -0.0, -0.0, 0.0, -0.0, 1.0]
buttons: [0, 0, 0, 0, 0, 0, 0, 0, 0, 0, 0]
---
header: 
  seq: 272
  stamp: 
    secs: 1659387066
    nsecs: 617500153
  frame_id: "/dev/input/js0"
axes: [-0.0, -0.0, 0.0, -0.0, -0.0, 0.0, -0.0, -0.0]
buttons: [0, 0, 0, 0, 0, 0, 0, 0, 0, 0, 0]
---
header: 
  seq: 273
  stamp: 
    secs: 1659387075
    nsecs: 102439600
  frame_id: "/dev/input/js0"
axes: [-0.0, -0.0, 0.0, -0.0, -0.0, 0.0, -0.0, -0.0]
buttons: [0, 0, 0, 0, 0, 0, 0, 0, 0, 0, 0]
---
header: 
  seq: 274
  stamp: 
    secs: 1659387092
    nsecs: 800457316
  frame_id: "/dev/input/js0"
axes: [-0.0, -0.0, 0.0, -0.0, -0.0, 0.0, -0.0, -0.0]
buttons: [0, 0, 0, 0, 0, 0, 0, 0, 0, 0, 0]
---
header: 
  seq: 275
  stamp: 
    secs: 1659387092
    nsecs: 877192793
  frame_id: "/dev/input/js0"
axes: [-0.0, -0.0, 0.0, -0.0, -0.0, 0.9835521578788757, -0.0, -0.0]
buttons: [0, 0, 0, 0, 0, 0, 0, 0, 0, 0, 0]
---
header: 
  seq: 276
  stamp: 
    secs: 1659387092
    nsecs: 884475436
  frame_id: "/dev/input/js0"
axes: [-0.0, -0.0, 0.0, -0.0, -0.0, 0.9629601836204529, -0.0, -0.0]
buttons: [0, 0, 0, 0, 0, 0, 0, 0, 0, 0, 0]
---
header: 
  seq: 277
  stamp: 
    secs: 1659387092
    nsecs: 900481450
  frame_id: "/dev/input/js0"
axes: [-0.0, -0.0, 0.0, -0.0, -0.0, 0.9485361576080322, -0.0, -0.0]
buttons: [0, 0, 0, 0, 0, 0, 0, 0, 0, 0, 0]
---
header: 
  seq: 278
  stamp: 
    secs: 1659387092
    nsecs: 916456055
  frame_id: "/dev/input/js0"
axes: [-0.0, -0.0, 0.0, -0.0, -0.0, 0.9341121315956116, -0.0, -0.0]
buttons: [0, 0, 0, 0, 0, 0, 0, 0, 0, 0, 0]
---
header: 
  seq: 279
  stamp: 
    secs: 1659387092
    nsecs: 924443547
  frame_id: "/dev/input/js0"
axes: [-0.0, -0.0, 0.0, -0.0, -0.0, 0.9176321625709534, -0.0, -0.0]
buttons: [0, 0, 0, 0, 0, 0, 0, 0, 0, 0, 0]
---
header: 
  seq: 280
  stamp: 
    secs: 1659387092
    nsecs: 932434737
  frame_id: "/dev/input/js0"
axes: [-0.0, -0.0, 0.0, -0.0, -0.0, 0.8990961909294128, -0.0, -0.0]
buttons: [0, 0, 0, 0, 0, 0, 0, 0, 0, 0, 0]
---
header: 
  seq: 281
  stamp: 
    secs: 1659387092
    nsecs: 936455790
  frame_id: "/dev/input/js0"
axes: [-0.0, -0.0, 0.0, -0.0, -0.0, 0.8826161623001099, -0.0, -0.0]
buttons: [0, 0, 0, 0, 0, 0, 0, 0, 0, 0, 0]
---
header: 
  seq: 282
  stamp: 
    secs: 1659387092
    nsecs: 940457142
  frame_id: "/dev/input/js0"
axes: [-0.0, -0.0, 0.0, -0.0, -0.0, 0.8681921362876892, -0.0, -0.0]
buttons: [0, 0, 0, 0, 0, 0, 0, 0, 0, 0, 0]
---
header: 
  seq: 283
  stamp: 
    secs: 1659387092
    nsecs: 948449221
  frame_id: "/dev/input/js0"
axes: [-0.0, -0.0, 0.0, -0.0, -0.0, 0.8476002216339111, -0.0, -0.0]
buttons: [0, 0, 0, 0, 0, 0, 0, 0, 0, 0, 0]
---
header: 
  seq: 284
  stamp: 
    secs: 1659387092
    nsecs: 956456088
  frame_id: "/dev/input/js0"
axes: [-0.0, -0.0, 0.0, -0.0, -0.0, 0.8208402991294861, -0.0, -0.0]
buttons: [0, 0, 0, 0, 0, 0, 0, 0, 0, 0, 0]
---
header: 
  seq: 285
  stamp: 
    secs: 1659387092
    nsecs: 960505624
  frame_id: "/dev/input/js0"
axes: [-0.0, -0.0, 0.0, -0.0, -0.0, 0.8022722005844116, -0.0, -0.0]
buttons: [0, 0, 0, 0, 0, 0, 0, 0, 0, 0, 0]
---
header: 
  seq: 286
  stamp: 
    secs: 1659387092
    nsecs: 964463786
  frame_id: "/dev/input/js0"
axes: [-0.0, -0.0, 0.0, -0.0, -0.0, 0.7837362289428711, -0.0, -0.0]
buttons: [0, 0, 0, 0, 0, 0, 0, 0, 0, 0, 0]
---
header: 
  seq: 287
  stamp: 
    secs: 1659387092
    nsecs: 968497095
  frame_id: "/dev/input/js0"
axes: [-0.0, -0.0, 0.0, -0.0, -0.0, 0.7652001976966858, -0.0, -0.0]
buttons: [0, 0, 0, 0, 0, 0, 0, 0, 0, 0, 0]
---
header: 
  seq: 288
  stamp: 
    secs: 1659387092
    nsecs: 972458430
  frame_id: "/dev/input/js0"
axes: [-0.0, -0.0, 0.0, -0.0, -0.0, 0.7446082830429077, -0.0, -0.0]
buttons: [0, 0, 0, 0, 0, 0, 0, 0, 0, 0, 0]
---
header: 
  seq: 289
  stamp: 
    secs: 1659387092
    nsecs: 976466800
  frame_id: "/dev/input/js0"
axes: [-0.0, -0.0, 0.0, -0.0, -0.0, 0.7281282544136047, -0.0, -0.0]
buttons: [0, 0, 0, 0, 0, 0, 0, 0, 0, 0, 0]
---
header: 
  seq: 290
  stamp: 
    secs: 1659387092
    nsecs: 980504070
  frame_id: "/dev/input/js0"
axes: [-0.0, -0.0, 0.0, -0.0, -0.0, 0.7075362801551819, -0.0, -0.0]
buttons: [0, 0, 0, 0, 0, 0, 0, 0, 0, 0, 0]
---
header: 
  seq: 291
  stamp: 
    secs: 1659387092
    nsecs: 985196552
  frame_id: "/dev/input/js0"
axes: [-0.0, -0.0, 0.0, -0.0, -0.0, 0.693112313747406, -0.0, -0.0]
buttons: [0, 0, 0, 0, 0, 0, 0, 0, 0, 0, 0]
---
header: 
  seq: 292
  stamp: 
    secs: 1659387092
    nsecs: 988460364
  frame_id: "/dev/input/js0"
axes: [-0.0, -0.0, 0.0, -0.0, -0.0, 0.6786882877349854, -0.0, -0.0]
buttons: [0, 0, 0, 0, 0, 0, 0, 0, 0, 0, 0]
---
header: 
  seq: 293
  stamp: 
    secs: 1659387092
    nsecs: 992470037
  frame_id: "/dev/input/js0"
axes: [-0.0, -0.0, 0.0, -0.0, -0.0, 0.6622082591056824, -0.0, -0.0]
buttons: [0, 0, 0, 0, 0, 0, 0, 0, 0, 0, 0]
---
header: 
  seq: 294
  stamp: 
    secs: 1659387093
    nsecs:    487396
  frame_id: "/dev/input/js0"
axes: [-0.0, -0.0, 0.0, -0.0, -0.0, 0.6436722874641418, -0.0, -0.0]
buttons: [0, 0, 0, 0, 0, 0, 0, 0, 0, 0, 0]
---
header: 
  seq: 295
  stamp: 
    secs: 1659387093
    nsecs:   8469025
  frame_id: "/dev/input/js0"
axes: [-0.0, -0.0, 0.0, -0.0, -0.0, 0.6251363158226013, -0.0, -0.0]
buttons: [0, 0, 0, 0, 0, 0, 0, 0, 0, 0, 0]
---
header: 
  seq: 296
  stamp: 
    secs: 1659387093
    nsecs:  16464309
  frame_id: "/dev/input/js0"
axes: [-0.0, -0.0, 0.0, -0.0, -0.0, 0.6086563467979431, -0.0, -0.0]
buttons: [0, 0, 0, 0, 0, 0, 0, 0, 0, 0, 0]
---
header: 
  seq: 297
  stamp: 
    secs: 1659387093
    nsecs:  28457175
  frame_id: "/dev/input/js0"
axes: [-0.0, -0.0, 0.0, -0.0, -0.0, 0.5901203751564026, -0.0, -0.0]
buttons: [0, 0, 0, 0, 0, 0, 0, 0, 0, 0, 0]
---
header: 
  seq: 298
  stamp: 
    secs: 1659387093
    nsecs:  40515746
  frame_id: "/dev/input/js0"
axes: [-0.0, -0.0, 0.0, -0.0, -0.0, 0.5674402713775635, -0.0, -0.0]
buttons: [0, 0, 0, 0, 0, 0, 0, 0, 0, 0, 0]
---
header: 
  seq: 299
  stamp: 
    secs: 1659387093
    nsecs:  48589926
  frame_id: "/dev/input/js0"
axes: [-0.0, -0.0, 0.0, -0.0, -0.0, 0.5427363514900208, -0.0, -0.0]
buttons: [0, 0, 0, 0, 0, 0, 0, 0, 0, 0, 0]
---
header: 
  seq: 300
  stamp: 
    secs: 1659387093
    nsecs:  56521692
  frame_id: "/dev/input/js0"
axes: [-0.0, -0.0, 0.0, -0.0, -0.0, 0.5118323564529419, -0.0, -0.0]
buttons: [0, 0, 0, 0, 0, 0, 0, 0, 0, 0, 0]
---
header: 
  seq: 301
  stamp: 
    secs: 1659387093
    nsecs:  60513684
  frame_id: "/dev/input/js0"
axes: [-0.0, -0.0, 0.0, -0.0, -0.0, 0.4953523576259613, -0.0, -0.0]
buttons: [0, 0, 0, 0, 0, 0, 0, 0, 0, 0, 0]
---
header: 
  seq: 302
  stamp: 
    secs: 1659387093
    nsecs:  64470333
  frame_id: "/dev/input/js0"
axes: [-0.0, -0.0, 0.0, -0.0, -0.0, 0.4768163859844208, -0.0, -0.0]
buttons: [0, 0, 0, 0, 0, 0, 0, 0, 0, 0, 0]
---
header: 
  seq: 303
  stamp: 
    secs: 1659387093
    nsecs:  72484408
  frame_id: "/dev/input/js0"
axes: [-0.0, -0.0, 0.0, -0.0, -0.0, 0.4500243365764618, -0.0, -0.0]
buttons: [0, 0, 0, 0, 0, 0, 0, 0, 0, 0, 0]
---
header: 
  seq: 304
  stamp: 
    secs: 1659387093
    nsecs:  76503506
  frame_id: "/dev/input/js0"
axes: [-0.0, -0.0, 0.0, -0.0, -0.0, 0.427376389503479, -0.0, -0.0]
buttons: [0, 0, 0, 0, 0, 0, 0, 0, 0, 0, 0]
---
header: 
  seq: 305
  stamp: 
    secs: 1659387093
    nsecs:  80499103
  frame_id: "/dev/input/js0"
axes: [-0.0, -0.0, 0.0, -0.0, -0.0, 0.40264034271240234, -0.0, -0.0]
buttons: [0, 0, 0, 0, 0, 0, 0, 0, 0, 0, 0]
---
header: 
  seq: 306
  stamp: 
    secs: 1659387093
    nsecs:  84475447
  frame_id: "/dev/input/js0"
axes: [-0.0, -0.0, 0.0, -0.0, -0.0, 0.3737923204898834, -0.0, -0.0]
buttons: [0, 0, 0, 0, 0, 0, 0, 0, 0, 0, 0]
---
header: 
  seq: 307
  stamp: 
    secs: 1659387093
    nsecs:  88471679
  frame_id: "/dev/input/js0"
axes: [-0.0, -0.0, 0.0, -0.0, -0.0, 0.3490883708000183, -0.0, -0.0]
buttons: [0, 0, 0, 0, 0, 0, 0, 0, 0, 0, 0]
---
header: 
  seq: 308
  stamp: 
    secs: 1659387093
    nsecs:  92726637
  frame_id: "/dev/input/js0"
axes: [-0.0, -0.0, 0.0, -0.0, -0.0, 0.3222963511943817, -0.0, -0.0]
buttons: [0, 0, 0, 0, 0, 0, 0, 0, 0, 0, 0]
---
header: 
  seq: 309
  stamp: 
    secs: 1659387093
    nsecs:  96475492
  frame_id: "/dev/input/js0"
axes: [-0.0, -0.0, 0.0, -0.0, -0.0, 0.28933635354042053, -0.0, -0.0]
buttons: [0, 0, 0, 0, 0, 0, 0, 0, 0, 0, 0]
---
header: 
  seq: 310
  stamp: 
    secs: 1659387093
    nsecs: 100467515
  frame_id: "/dev/input/js0"
axes: [-0.0, -0.0, 0.0, -0.0, -0.0, 0.25637635588645935, -0.0, -0.0]
buttons: [0, 0, 0, 0, 0, 0, 0, 0, 0, 0, 0]
---
header: 
  seq: 311
  stamp: 
    secs: 1659387093
    nsecs: 105248405
  frame_id: "/dev/input/js0"
axes: [-0.0, -0.0, 0.0, -0.0, -0.0, 0.2193043977022171, -0.0, -0.0]
buttons: [0, 0, 0, 0, 0, 0, 0, 0, 0, 0, 0]
---
header: 
  seq: 312
  stamp: 
    secs: 1659387093
    nsecs: 108463123
  frame_id: "/dev/input/js0"
axes: [-0.0, -0.0, 0.0, -0.0, -0.0, 0.18017646670341492, -0.0, -0.0]
buttons: [0, 0, 0, 0, 0, 0, 0, 0, 0, 0, 0]
---
header: 
  seq: 313
  stamp: 
    secs: 1659387093
    nsecs: 112458745
  frame_id: "/dev/input/js0"
axes: [-0.0, -0.0, 0.0, -0.0, -0.0, 0.13690443336963654, -0.0, -0.0]
buttons: [0, 0, 0, 0, 0, 0, 0, 0, 0, 0, 0]
---
header: 
  seq: 314
  stamp: 
    secs: 1659387093
    nsecs: 116461666
  frame_id: "/dev/input/js0"
axes: [-0.0, -0.0, 0.0, -0.0, -0.0, 0.09363239258527756, -0.0, -0.0]
buttons: [0, 0, 0, 0, 0, 0, 0, 0, 0, 0, 0]
---
header: 
  seq: 315
  stamp: 
    secs: 1659387093
    nsecs: 120568122
  frame_id: "/dev/input/js0"
axes: [-0.0, -0.0, 0.0, -0.0, -0.0, 0.04833649843931198, -0.0, -0.0]
buttons: [0, 0, 0, 0, 0, 0, 0, 0, 0, 0, 0]
---
header: 
  seq: 316
  stamp: 
    secs: 1659387093
    nsecs: 124508996
  frame_id: "/dev/input/js0"
axes: [-0.0, -0.0, 0.0, -0.0, -0.0, -0.0, -0.0, -0.0]
buttons: [0, 0, 0, 0, 0, 0, 0, 0, 0, 0, 0]
---
header: 
  seq: 317
  stamp: 
    secs: 1659387093
    nsecs: 128456212
  frame_id: "/dev/input/js0"
axes: [-0.0, -0.0, 0.0, -0.0, -0.0, -0.0, -0.0, -0.0]
buttons: [0, 0, 0, 0, 0, 0, 0, 0, 0, 0, 0]
---
header: 
  seq: 318
  stamp: 
    secs: 1659387093
    nsecs: 132450321
  frame_id: "/dev/input/js0"
axes: [-0.0, -0.0, 0.0, -0.0, -0.0, -0.0, -0.0, -0.0]
buttons: [0, 0, 0, 0, 0, 0, 0, 0, 0, 0, 0]
---
header: 
  seq: 319
  stamp: 
    secs: 1659387093
    nsecs: 136502830
  frame_id: "/dev/input/js0"
axes: [-0.0, -0.0, 0.0, -0.0, -0.0, -0.035936348140239716, -0.0, -0.0]
buttons: [0, 0, 0, 0, 0, 0, 0, 0, 0, 0, 0]
---
header: 
  seq: 320
  stamp: 
    secs: 1659387093
    nsecs: 140465586
  frame_id: "/dev/input/js0"
axes: [-0.0, -0.0, 0.0, -0.0, -0.0, -0.07095231860876083, -0.0, -0.0]
buttons: [0, 0, 0, 0, 0, 0, 0, 0, 0, 0, 0]
---
header: 
  seq: 321
  stamp: 
    secs: 1659387093
    nsecs: 144465015
  frame_id: "/dev/input/js0"
axes: [-0.0, -0.0, 0.0, -0.0, -0.0, -0.10391230881214142, -0.0, -0.0]
buttons: [0, 0, 0, 0, 0, 0, 0, 0, 0, 0, 0]
---
header: 
  seq: 322
  stamp: 
    secs: 1659387093
    nsecs: 148505107
  frame_id: "/dev/input/js0"
axes: [-0.0, -0.0, 0.0, -0.0, -0.0, -0.1265602558851242, -0.0, -0.0]
buttons: [0, 0, 0, 0, 0, 0, 0, 0, 0, 0, 0]
---
header: 
  seq: 323
  stamp: 
    secs: 1659387093
    nsecs: 152513605
  frame_id: "/dev/input/js0"
axes: [-0.0, -0.0, 0.0, -0.0, -0.0, -0.14924032986164093, -0.0, -0.0]
buttons: [0, 0, 0, 0, 0, 0, 0, 0, 0, 0, 0]
---
header: 
  seq: 324
  stamp: 
    secs: 1659387093
    nsecs: 156561480
  frame_id: "/dev/input/js0"
axes: [-0.0, -0.0, 0.0, -0.0, -0.0, -0.16572032868862152, -0.0, -0.0]
buttons: [0, 0, 0, 0, 0, 0, 0, 0, 0, 0, 0]
---
header: 
  seq: 325
  stamp: 
    secs: 1659387093
    nsecs: 160533512
  frame_id: "/dev/input/js0"
axes: [-0.0, -0.0, 0.0, -0.0, -0.0, -0.18425630033016205, -0.0, -0.0]
buttons: [0, 0, 0, 0, 0, 0, 0, 0, 0, 0, 0]
---
header: 
  seq: 326
  stamp: 
    secs: 1659387093
    nsecs: 168482384
  frame_id: "/dev/input/js0"
axes: [-0.0, -0.0, 0.0, -0.0, -0.0, -0.20690424740314484, -0.0, -0.0]
buttons: [0, 0, 0, 0, 0, 0, 0, 0, 0, 0, 0]
---
header: 
  seq: 327
  stamp: 
    secs: 1659387093
    nsecs: 176548860
  frame_id: "/dev/input/js0"
axes: [-0.0, -0.0, 0.0, -0.0, -0.0, -0.22752833366394043, -0.0, -0.0]
buttons: [0, 0, 0, 0, 0, 0, 0, 0, 0, 0, 0]
---
header: 
  seq: 328
  stamp: 
    secs: 1659387093
    nsecs: 180519861
  frame_id: "/dev/input/js0"
axes: [-0.0, -0.0, 0.0, -0.0, -0.0, -0.24192021787166595, -0.0, -0.0]
buttons: [0, 0, 0, 0, 0, 0, 0, 0, 0, 0, 0]
---
header: 
  seq: 329
  stamp: 
    secs: 1659387093
    nsecs: 184486083
  frame_id: "/dev/input/js0"
axes: [-0.0, -0.0, 0.0, -0.0, -0.0, -0.25840023159980774, -0.0, -0.0]
buttons: [0, 0, 0, 0, 0, 0, 0, 0, 0, 0, 0]
---
header: 
  seq: 330
  stamp: 
    secs: 1659387093
    nsecs: 188481928
  frame_id: "/dev/input/js0"
axes: [-0.0, -0.0, 0.0, -0.0, -0.0, -0.2769683301448822, -0.0, -0.0]
buttons: [0, 0, 0, 0, 0, 0, 0, 0, 0, 0, 0]
---
header: 
  seq: 331
  stamp: 
    secs: 1659387093
    nsecs: 192482188
  frame_id: "/dev/input/js0"
axes: [-0.0, -0.0, 0.0, -0.0, -0.0, -0.29136019945144653, -0.0, -0.0]
buttons: [0, 0, 0, 0, 0, 0, 0, 0, 0, 0, 0]
---
header: 
  seq: 332
  stamp: 
    secs: 1659387093
    nsecs: 196490088
  frame_id: "/dev/input/js0"
axes: [-0.0, -0.0, 0.0, -0.0, -0.0, -0.3078401982784271, -0.0, -0.0]
buttons: [0, 0, 0, 0, 0, 0, 0, 0, 0, 0, 0]
---
header: 
  seq: 333
  stamp: 
    secs: 1659387093
    nsecs: 200482937
  frame_id: "/dev/input/js0"
axes: [-0.0, -0.0, 0.0, -0.0, -0.0, -0.3222642242908478, -0.0, -0.0]
buttons: [0, 0, 0, 0, 0, 0, 0, 0, 0, 0, 0]
---
header: 
  seq: 334
  stamp: 
    secs: 1659387093
    nsecs: 204479887
  frame_id: "/dev/input/js0"
axes: [-0.0, -0.0, 0.0, -0.0, -0.0, -0.3428882956504822, -0.0, -0.0]
buttons: [0, 0, 0, 0, 0, 0, 0, 0, 0, 0, 0]
---
header: 
  seq: 335
  stamp: 
    secs: 1659387093
    nsecs: 208473730
  frame_id: "/dev/input/js0"
axes: [-0.0, -0.0, 0.0, -0.0, -0.0, -0.3614242970943451, -0.0, -0.0]
buttons: [0, 0, 0, 0, 0, 0, 0, 0, 0, 0, 0]
---
header: 
  seq: 336
  stamp: 
    secs: 1659387093
    nsecs: 212474842
  frame_id: "/dev/input/js0"
axes: [-0.0, -0.0, 0.0, -0.0, -0.0, -0.3840722441673279, -0.0, -0.0]
buttons: [0, 0, 0, 0, 0, 0, 0, 0, 0, 0, 0]
---
header: 
  seq: 337
  stamp: 
    secs: 1659387093
    nsecs: 216474385
  frame_id: "/dev/input/js0"
axes: [-0.0, -0.0, 0.0, -0.0, -0.0, -0.40466418862342834, -0.0, -0.0]
buttons: [0, 0, 0, 0, 0, 0, 0, 0, 0, 0, 0]
---
header: 
  seq: 338
  stamp: 
    secs: 1659387093
    nsecs: 220467785
  frame_id: "/dev/input/js0"
axes: [-0.0, -0.0, 0.0, -0.0, -0.0, -0.42734426259994507, -0.0, -0.0]
buttons: [0, 0, 0, 0, 0, 0, 0, 0, 0, 0, 0]
---
header: 
  seq: 339
  stamp: 
    secs: 1659387093
    nsecs: 224469121
  frame_id: "/dev/input/js0"
axes: [-0.0, -0.0, 0.0, -0.0, -0.0, -0.4417682886123657, -0.0, -0.0]
buttons: [0, 0, 0, 0, 0, 0, 0, 0, 0, 0, 0]
---
header: 
  seq: 340
  stamp: 
    secs: 1659387093
    nsecs: 232469226
  frame_id: "/dev/input/js0"
axes: [-0.0, -0.0, 0.0, -0.0, -0.0, -0.4623602330684662, -0.0, -0.0]
buttons: [0, 0, 0, 0, 0, 0, 0, 0, 0, 0, 0]
---
header: 
  seq: 341
  stamp: 
    secs: 1659387093
    nsecs: 240480198
  frame_id: "/dev/input/js0"
axes: [-0.0, -0.0, 0.0, -0.0, -0.0, -0.48295220732688904, -0.0, -0.0]
buttons: [0, 0, 0, 0, 0, 0, 0, 0, 0, 0, 0]
---
header: 
  seq: 342
  stamp: 
    secs: 1659387093
    nsecs: 252487762
  frame_id: "/dev/input/js0"
axes: [-0.0, -0.0, 0.0, -0.0, -0.0, -0.49943220615386963, -0.0, -0.0]
buttons: [0, 0, 0, 0, 0, 0, 0, 0, 0, 0, 0]
---
header: 
  seq: 343
  stamp: 
    secs: 1659387093
    nsecs: 264570387
  frame_id: "/dev/input/js0"
axes: [-0.0, -0.0, 0.0, -0.0, -0.0, -0.5282801985740662, -0.0, -0.0]
buttons: [0, 0, 0, 0, 0, 0, 0, 0, 0, 0, 0]
---
header: 
  seq: 344
  stamp: 
    secs: 1659387093
    nsecs: 272521101
  frame_id: "/dev/input/js0"
axes: [-0.0, -0.0, 0.0, -0.0, -0.0, -0.5571282505989075, -0.0, -0.0]
buttons: [0, 0, 0, 0, 0, 0, 0, 0, 0, 0, 0]
---
header: 
  seq: 345
  stamp: 
    secs: 1659387093
    nsecs: 276562488
  frame_id: "/dev/input/js0"
axes: [-0.0, -0.0, 0.0, -0.0, -0.0, -0.5715201497077942, -0.0, -0.0]
buttons: [0, 0, 0, 0, 0, 0, 0, 0, 0, 0, 0]
---
header: 
  seq: 346
  stamp: 
    secs: 1659387093
    nsecs: 281576592
  frame_id: "/dev/input/js0"
axes: [-0.0, -0.0, 0.0, -0.0, -0.0, -0.5900882482528687, -0.0, -0.0]
buttons: [0, 0, 0, 0, 0, 0, 0, 0, 0, 0, 0]
---
header: 
  seq: 347
  stamp: 
    secs: 1659387093
    nsecs: 284491488
  frame_id: "/dev/input/js0"
axes: [-0.0, -0.0, 0.0, -0.0, -0.0, -0.6086242198944092, -0.0, -0.0]
buttons: [0, 0, 0, 0, 0, 0, 0, 0, 0, 0, 0]
---
header: 
  seq: 348
  stamp: 
    secs: 1659387093
    nsecs: 288537025
  frame_id: "/dev/input/js0"
axes: [-0.0, -0.0, 0.0, -0.0, -0.0, -0.6271601915359497, -0.0, -0.0]
buttons: [0, 0, 0, 0, 0, 0, 0, 0, 0, 0, 0]
---
header: 
  seq: 349
  stamp: 
    secs: 1659387093
    nsecs: 292541132
  frame_id: "/dev/input/js0"
axes: [-0.0, -0.0, 0.0, -0.0, -0.0, -0.6498081088066101, -0.0, -0.0]
buttons: [0, 0, 0, 0, 0, 0, 0, 0, 0, 0, 0]
---
header: 
  seq: 350
  stamp: 
    secs: 1659387093
    nsecs: 296501727
  frame_id: "/dev/input/js0"
axes: [-0.0, -0.0, 0.0, -0.0, -0.0, -0.6724882125854492, -0.0, -0.0]
buttons: [0, 0, 0, 0, 0, 0, 0, 0, 0, 0, 0]
---
header: 
  seq: 351
  stamp: 
    secs: 1659387093
    nsecs: 300492868
  frame_id: "/dev/input/js0"
axes: [-0.0, -0.0, 0.0, -0.0, -0.0, -0.6910241842269897, -0.0, -0.0]
buttons: [0, 0, 0, 0, 0, 0, 0, 0, 0, 0, 0]
---
header: 
  seq: 352
  stamp: 
    secs: 1659387093
    nsecs: 304483002
  frame_id: "/dev/input/js0"
axes: [-0.0, -0.0, 0.0, -0.0, -0.0, -0.7054482102394104, -0.0, -0.0]
buttons: [0, 0, 0, 0, 0, 0, 0, 0, 0, 0, 0]
---
header: 
  seq: 353
  stamp: 
    secs: 1659387093
    nsecs: 312484420
  frame_id: "/dev/input/js0"
axes: [-0.0, -0.0, 0.0, -0.0, -0.0, -0.7280961275100708, -0.0, -0.0]
buttons: [0, 0, 0, 0, 0, 0, 0, 0, 0, 0, 0]
---
header: 
  seq: 354
  stamp: 
    secs: 1659387093
    nsecs: 324488260
  frame_id: "/dev/input/js0"
axes: [-0.0, -0.0, 0.0, -0.0, -0.0, -0.7425201535224915, -0.0, -0.0]
buttons: [0, 0, 0, 0, 0, 0, 0, 0, 0, 0, 0]
---
header: 
  seq: 355
  stamp: 
    secs: 1659387093
    nsecs: 340499849
  frame_id: "/dev/input/js0"
axes: [-0.0, -0.0, 0.0, -0.0, -0.0, -0.7590001225471497, -0.0, -0.0]
buttons: [0, 0, 0, 0, 0, 0, 0, 0, 0, 0, 0]
---
header: 
  seq: 356
  stamp: 
    secs: 1659387093
    nsecs: 512531055
  frame_id: "/dev/input/js0"
axes: [-0.0, -0.0, 0.0, -0.0, -0.0, -0.7404641509056091, -0.0, -0.0]
buttons: [0, 0, 0, 0, 0, 0, 0, 0, 0, 0, 0]
---
header: 
  seq: 357
  stamp: 
    secs: 1659387093
    nsecs: 520519747
  frame_id: "/dev/input/js0"
axes: [-0.0, -0.0, 0.0, -0.0, -0.0, -0.7219281792640686, -0.0, -0.0]
buttons: [0, 0, 0, 0, 0, 0, 0, 0, 0, 0, 0]
---
header: 
  seq: 358
  stamp: 
    secs: 1659387093
    nsecs: 548519684
  frame_id: "/dev/input/js0"
axes: [-0.0, -0.0, 0.0, -0.0, -0.0, -0.7054482102394104, -0.0, -0.0]
buttons: [0, 0, 0, 0, 0, 0, 0, 0, 0, 0, 0]
---
header: 
  seq: 359
  stamp: 
    secs: 1659387093
    nsecs: 556513380
  frame_id: "/dev/input/js0"
axes: [-0.0, -0.0, 0.0, -0.0, -0.0, -0.6910241842269897, -0.0, -0.0]
buttons: [0, 0, 0, 0, 0, 0, 0, 0, 0, 0, 0]
---
header: 
  seq: 360
  stamp: 
    secs: 1659387093
    nsecs: 560515571
  frame_id: "/dev/input/js0"
axes: [-0.0, -0.0, 0.0, -0.0, -0.0, -0.670400083065033, -0.0, -0.0]
buttons: [0, 0, 0, 0, 0, 0, 0, 0, 0, 0, 0]
---
header: 
  seq: 361
  stamp: 
    secs: 1659387093
    nsecs: 564516436
  frame_id: "/dev/input/js0"
axes: [-0.0, -0.0, 0.0, -0.0, -0.0, -0.6456961631774902, -0.0, -0.0]
buttons: [0, 0, 0, 0, 0, 0, 0, 0, 0, 0, 0]
---
header: 
  seq: 362
  stamp: 
    secs: 1659387093
    nsecs: 568514674
  frame_id: "/dev/input/js0"
axes: [-0.0, -0.0, 0.0, -0.0, -0.0, -0.6230482459068298, -0.0, -0.0]
buttons: [0, 0, 0, 0, 0, 0, 0, 0, 0, 0, 0]
---
header: 
  seq: 363
  stamp: 
    secs: 1659387093
    nsecs: 572558868
  frame_id: "/dev/input/js0"
axes: [-0.0, -0.0, 0.0, -0.0, -0.0, -0.6086242198944092, -0.0, -0.0]
buttons: [0, 0, 0, 0, 0, 0, 0, 0, 0, 0, 0]
---
header: 
  seq: 364
  stamp: 
    secs: 1659387093
    nsecs: 576549912
  frame_id: "/dev/input/js0"
axes: [-0.0, -0.0, 0.0, -0.0, -0.0, -0.5921441912651062, -0.0, -0.0]
buttons: [0, 0, 0, 0, 0, 0, 0, 0, 0, 0, 0]
---
header: 
  seq: 365
  stamp: 
    secs: 1659387093
    nsecs: 581534232
  frame_id: "/dev/input/js0"
axes: [-0.0, -0.0, 0.0, -0.0, -0.0, -0.5777202248573303, -0.0, -0.0]
buttons: [0, 0, 0, 0, 0, 0, 0, 0, 0, 0, 0]
---
header: 
  seq: 366
  stamp: 
    secs: 1659387093
    nsecs: 584550526
  frame_id: "/dev/input/js0"
axes: [-0.0, -0.0, 0.0, -0.0, -0.0, -0.5550401210784912, -0.0, -0.0]
buttons: [0, 0, 0, 0, 0, 0, 0, 0, 0, 0, 0]
---
header: 
  seq: 367
  stamp: 
    secs: 1659387093
    nsecs: 588527856
  frame_id: "/dev/input/js0"
axes: [-0.0, -0.0, 0.0, -0.0, -0.0, -0.5365041494369507, -0.0, -0.0]
buttons: [0, 0, 0, 0, 0, 0, 0, 0, 0, 0, 0]
---
header: 
  seq: 368
  stamp: 
    secs: 1659387093
    nsecs: 592533490
  frame_id: "/dev/input/js0"
axes: [-0.0, -0.0, 0.0, -0.0, -0.0, -0.52208012342453, -0.0, -0.0]
buttons: [0, 0, 0, 0, 0, 0, 0, 0, 0, 0, 0]
---
header: 
  seq: 369
  stamp: 
    secs: 1659387093
    nsecs: 600539638
  frame_id: "/dev/input/js0"
axes: [-0.0, -0.0, 0.0, -0.0, -0.0, -0.49943220615386963, -0.0, -0.0]
buttons: [0, 0, 0, 0, 0, 0, 0, 0, 0, 0, 0]
---
header: 
  seq: 370
  stamp: 
    secs: 1659387093
    nsecs: 608516646
  frame_id: "/dev/input/js0"
axes: [-0.0, -0.0, 0.0, -0.0, -0.0, -0.4747282564640045, -0.0, -0.0]
buttons: [0, 0, 0, 0, 0, 0, 0, 0, 0, 0, 0]
---
header: 
  seq: 371
  stamp: 
    secs: 1659387093
    nsecs: 612514658
  frame_id: "/dev/input/js0"
axes: [-0.0, -0.0, 0.0, -0.0, -0.0, -0.4541041851043701, -0.0, -0.0]
buttons: [0, 0, 0, 0, 0, 0, 0, 0, 0, 0, 0]
---
header: 
  seq: 372
  stamp: 
    secs: 1659387093
    nsecs: 616504599
  frame_id: "/dev/input/js0"
axes: [-0.0, -0.0, 0.0, -0.0, -0.0, -0.4376241862773895, -0.0, -0.0]
buttons: [0, 0, 0, 0, 0, 0, 0, 0, 0, 0, 0]
---
header: 
  seq: 373
  stamp: 
    secs: 1659387093
    nsecs: 620503512
  frame_id: "/dev/input/js0"
axes: [-0.0, -0.0, 0.0, -0.0, -0.0, -0.419088214635849, -0.0, -0.0]
buttons: [0, 0, 0, 0, 0, 0, 0, 0, 0, 0, 0]
---
header: 
  seq: 374
  stamp: 
    secs: 1659387093
    nsecs: 624504627
  frame_id: "/dev/input/js0"
axes: [-0.0, -0.0, 0.0, -0.0, -0.0, -0.40466418862342834, -0.0, -0.0]
buttons: [0, 0, 0, 0, 0, 0, 0, 0, 0, 0, 0]
---
header: 
  seq: 375
  stamp: 
    secs: 1659387093
    nsecs: 628505179
  frame_id: "/dev/input/js0"
axes: [-0.0, -0.0, 0.0, -0.0, -0.0, -0.3902401924133301, -0.0, -0.0]
buttons: [0, 0, 0, 0, 0, 0, 0, 0, 0, 0, 0]
---
header: 
  seq: 376
  stamp: 
    secs: 1659387093
    nsecs: 632522748
  frame_id: "/dev/input/js0"
axes: [-0.0, -0.0, 0.0, -0.0, -0.0, -0.3737601935863495, -0.0, -0.0]
buttons: [0, 0, 0, 0, 0, 0, 0, 0, 0, 0, 0]
---
header: 
  seq: 377
  stamp: 
    secs: 1659387093
    nsecs: 640531556
  frame_id: "/dev/input/js0"
axes: [-0.0, -0.0, 0.0, -0.0, -0.0, -0.34700027108192444, -0.0, -0.0]
buttons: [0, 0, 0, 0, 0, 0, 0, 0, 0, 0, 0]
---
header: 
  seq: 378
  stamp: 
    secs: 1659387093
    nsecs: 644567948
  frame_id: "/dev/input/js0"
axes: [-0.0, -0.0, 0.0, -0.0, -0.0, -0.33257627487182617, -0.0, -0.0]
buttons: [0, 0, 0, 0, 0, 0, 0, 0, 0, 0, 0]
---
header: 
  seq: 379
  stamp: 
    secs: 1659387093
    nsecs: 648610141
  frame_id: "/dev/input/js0"
axes: [-0.0, -0.0, 0.0, -0.0, -0.0, -0.3078401982784271, -0.0, -0.0]
buttons: [0, 0, 0, 0, 0, 0, 0, 0, 0, 0, 0]
---
header: 
  seq: 380
  stamp: 
    secs: 1659387093
    nsecs: 652588213
  frame_id: "/dev/input/js0"
axes: [-0.0, -0.0, 0.0, -0.0, -0.0, -0.28519225120544434, -0.0, -0.0]
buttons: [0, 0, 0, 0, 0, 0, 0, 0, 0, 0, 0]
---
header: 
  seq: 381
  stamp: 
    secs: 1659387093
    nsecs: 656709021
  frame_id: "/dev/input/js0"
axes: [-0.0, -0.0, 0.0, -0.0, -0.0, -0.26460030674934387, -0.0, -0.0]
buttons: [0, 0, 0, 0, 0, 0, 0, 0, 0, 0, 0]
---
header: 
  seq: 382
  stamp: 
    secs: 1659387093
    nsecs: 660671580
  frame_id: "/dev/input/js0"
axes: [-0.0, -0.0, 0.0, -0.0, -0.0, -0.2501762807369232, -0.0, -0.0]
buttons: [0, 0, 0, 0, 0, 0, 0, 0, 0, 0, 0]
---
header: 
  seq: 383
  stamp: 
    secs: 1659387093
    nsecs: 664576965
  frame_id: "/dev/input/js0"
axes: [-0.0, -0.0, 0.0, -0.0, -0.0, -0.22958432137966156, -0.0, -0.0]
buttons: [0, 0, 0, 0, 0, 0, 0, 0, 0, 0, 0]
---
header: 
  seq: 384
  stamp: 
    secs: 1659387093
    nsecs: 668578048
  frame_id: "/dev/input/js0"
axes: [-0.0, -0.0, 0.0, -0.0, -0.0, -0.20896023511886597, -0.0, -0.0]
buttons: [0, 0, 0, 0, 0, 0, 0, 0, 0, 0, 0]
---
header: 
  seq: 385
  stamp: 
    secs: 1659387093
    nsecs: 672545146
  frame_id: "/dev/input/js0"
axes: [-0.0, -0.0, 0.0, -0.0, -0.0, -0.19456835091114044, -0.0, -0.0]
buttons: [0, 0, 0, 0, 0, 0, 0, 0, 0, 0, 0]
---
header: 
  seq: 386
  stamp: 
    secs: 1659387093
    nsecs: 676607321
  frame_id: "/dev/input/js0"
axes: [-0.0, -0.0, 0.0, -0.0, -0.0, -0.17394426465034485, -0.0, -0.0]
buttons: [0, 0, 0, 0, 0, 0, 0, 0, 0, 0, 0]
---
header: 
  seq: 387
  stamp: 
    secs: 1659387093
    nsecs: 680568603
  frame_id: "/dev/input/js0"
axes: [-0.0, -0.0, 0.0, -0.0, -0.0, -0.153352290391922, -0.0, -0.0]
buttons: [0, 0, 0, 0, 0, 0, 0, 0, 0, 0, 0]
---
header: 
  seq: 388
  stamp: 
    secs: 1659387093
    nsecs: 684548385
  frame_id: "/dev/input/js0"
axes: [-0.0, -0.0, 0.0, -0.0, -0.0, -0.1307043582201004, -0.0, -0.0]
buttons: [0, 0, 0, 0, 0, 0, 0, 0, 0, 0, 0]
---
header: 
  seq: 389
  stamp: 
    secs: 1659387093
    nsecs: 688540136
  frame_id: "/dev/input/js0"
axes: [-0.0, -0.0, 0.0, -0.0, -0.0, -0.10802427679300308, -0.0, -0.0]
buttons: [0, 0, 0, 0, 0, 0, 0, 0, 0, 0, 0]
---
header: 
  seq: 390
  stamp: 
    secs: 1659387093
    nsecs: 692546719
  frame_id: "/dev/input/js0"
axes: [-0.0, -0.0, 0.0, -0.0, -0.0, -0.08126436918973923, -0.0, -0.0]
buttons: [0, 0, 0, 0, 0, 0, 0, 0, 0, 0, 0]
---
header: 
  seq: 391
  stamp: 
    secs: 1659387093
    nsecs: 696544710
  frame_id: "/dev/input/js0"
axes: [-0.0, -0.0, 0.0, -0.0, -0.0, -0.050360359251499176, -0.0, -0.0]
buttons: [0, 0, 0, 0, 0, 0, 0, 0, 0, 0, 0]
---
header: 
  seq: 392
  stamp: 
    secs: 1659387093
    nsecs: 700544866
  frame_id: "/dev/input/js0"
axes: [-0.0, -0.0, 0.0, -0.0, -0.0, -0.02562430500984192, -0.0, -0.0]
buttons: [0, 0, 0, 0, 0, 0, 0, 0, 0, 0, 0]
---
header: 
  seq: 393
  stamp: 
    secs: 1659387093
    nsecs: 704528596
  frame_id: "/dev/input/js0"
axes: [-0.0, -0.0, 0.0, -0.0, -0.0, -0.0009203740046359599, -0.0, -0.0]
buttons: [0, 0, 0, 0, 0, 0, 0, 0, 0, 0, 0]
---
header: 
  seq: 394
  stamp: 
    secs: 1659387093
    nsecs: 708525369
  frame_id: "/dev/input/js0"
axes: [-0.0, -0.0, 0.0, -0.0, -0.0, -0.0, -0.0, -0.0]
buttons: [0, 0, 0, 0, 0, 0, 0, 0, 0, 0, 0]
---
header: 
  seq: 395
  stamp: 
    secs: 1659387093
    nsecs: 712522127
  frame_id: "/dev/input/js0"
axes: [-0.0, -0.0, 0.0, -0.0, -0.0, -0.0, -0.0, -0.0]
buttons: [0, 0, 0, 0, 0, 0, 0, 0, 0, 0, 0]
---
header: 
  seq: 396
  stamp: 
    secs: 1659387093
    nsecs: 716523506
  frame_id: "/dev/input/js0"
axes: [-0.0, -0.0, 0.0, -0.0, -0.0, -0.0, -0.0, -0.0]
buttons: [0, 0, 0, 0, 0, 0, 0, 0, 0, 0, 0]
---
header: 
  seq: 397
  stamp: 
    secs: 1659387093
    nsecs: 720524460
  frame_id: "/dev/input/js0"
axes: [-0.0, -0.0, 0.0, -0.0, -0.0, -0.0, -0.0, -0.0]
buttons: [0, 0, 0, 0, 0, 0, 0, 0, 0, 0, 0]
---
header: 
  seq: 398
  stamp: 
    secs: 1659387093
    nsecs: 724522606
  frame_id: "/dev/input/js0"
axes: [-0.0, -0.0, 0.0, -0.0, -0.0, 0.013320526108145714, -0.0, -0.0]
buttons: [0, 0, 0, 0, 0, 0, 0, 0, 0, 0, 0]
---
header: 
  seq: 399
  stamp: 
    secs: 1659387093
    nsecs: 728517927
  frame_id: "/dev/input/js0"
axes: [-0.0, -0.0, 0.0, -0.0, -0.0, 0.03596847131848335, -0.0, -0.0]
buttons: [0, 0, 0, 0, 0, 0, 0, 0, 0, 0, 0]
---
header: 
  seq: 400
  stamp: 
    secs: 1659387093
    nsecs: 732512439
  frame_id: "/dev/input/js0"
axes: [-0.0, -0.0, 0.0, -0.0, -0.0, 0.05656043440103531, -0.0, -0.0]
buttons: [0, 0, 0, 0, 0, 0, 0, 0, 0, 0, 0]
---
header: 
  seq: 401
  stamp: 
    secs: 1659387093
    nsecs: 740589336
  frame_id: "/dev/input/js0"
axes: [-0.0, -0.0, 0.0, -0.0, -0.0, 0.08129648864269257, -0.0, -0.0]
buttons: [0, 0, 0, 0, 0, 0, 0, 0, 0, 0, 0]
---
header: 
  seq: 402
  stamp: 
    secs: 1659387093
    nsecs: 760601157
  frame_id: "/dev/input/js0"
axes: [-0.0, -0.0, 0.0, -0.0, -0.0, 0.09572049975395203, -0.0, -0.0]
buttons: [0, 0, 0, 0, 0, 0, 0, 0, 0, 0, 0]
---
header: 
  seq: 403
  stamp: 
    secs: 1659387093
    nsecs: 812569591
  frame_id: "/dev/input/js0"
axes: [-0.0, -0.0, 0.0, -0.0, -0.0, 0.11220049858093262, -0.0, -0.0]
buttons: [0, 0, 0, 0, 0, 0, 0, 0, 0, 0, 0]
---
header: 
  seq: 404
  stamp: 
    secs: 1659387093
    nsecs: 840714870
  frame_id: "/dev/input/js0"
axes: [-0.0, -0.0, 0.0, -0.0, -0.0, 0.12659238278865814, -0.0, -0.0]
buttons: [0, 0, 0, 0, 0, 0, 0, 0, 0, 0, 0]
---
header: 
  seq: 405
  stamp: 
    secs: 1659387093
    nsecs: 868569175
  frame_id: "/dev/input/js0"
axes: [-0.0, -0.0, 0.0, -0.0, -0.0, 0.1410163938999176, -0.0, -0.0]
buttons: [0, 0, 0, 0, 0, 0, 0, 0, 0, 0, 0]
---
header: 
  seq: 406
  stamp: 
    secs: 1659387093
    nsecs: 956579443
  frame_id: "/dev/input/js0"
axes: [-0.0, -0.0, 0.0, -0.0, -0.0, 0.1616404801607132, -0.0, -0.0]
buttons: [0, 0, 0, 0, 0, 0, 0, 0, 0, 0, 0]
---
header: 
  seq: 407
  stamp: 
    secs: 1659387094
    nsecs: 976746660
  frame_id: "/dev/input/js0"
axes: [-0.0, -0.0, 0.0, -0.0, -0.0, 0.17603236436843872, -0.0, -0.0]
buttons: [0, 0, 0, 0, 0, 0, 0, 0, 0, 0, 0]
---
header: 
  seq: 408
  stamp: 
    secs: 1659387095
    nsecs: 200714568
  frame_id: "/dev/input/js0"
axes: [-0.0, -0.0, 0.0, -0.0, -0.0, 0.1925123631954193, -0.0, -0.0]
buttons: [0, 0, 0, 0, 0, 0, 0, 0, 0, 0, 0]
---
header: 
  seq: 409
  stamp: 
    secs: 1659387095
    nsecs: 304722124
  frame_id: "/dev/input/js0"
axes: [-0.0, -0.0, 0.0, -0.0, -0.0, 0.20693637430667877, -0.0, -0.0]
buttons: [0, 0, 0, 0, 0, 0, 0, 0, 0, 0, 0]
---
header: 
  seq: 410
  stamp: 
    secs: 1659387095
    nsecs: 352734591
  frame_id: "/dev/input/js0"
axes: [-0.0, -0.0, 0.0, -0.0, -0.0, 0.22136038541793823, -0.0, -0.0]
buttons: [0, 0, 0, 0, 0, 0, 0, 0, 0, 0, 0]
---
header: 
  seq: 411
  stamp: 
    secs: 1659387095
    nsecs: 376758184
  frame_id: "/dev/input/js0"
axes: [-0.0, -0.0, 0.0, -0.0, -0.0, 0.23989637196063995, -0.0, -0.0]
buttons: [0, 0, 0, 0, 0, 0, 0, 0, 0, 0, 0]
---
header: 
  seq: 412
  stamp: 
    secs: 1659387095
    nsecs: 388749860
  frame_id: "/dev/input/js0"
axes: [-0.0, -0.0, 0.0, -0.0, -0.0, 0.2543203830718994, -0.0, -0.0]
buttons: [0, 0, 0, 0, 0, 0, 0, 0, 0, 0, 0]
---
header: 
  seq: 413
  stamp: 
    secs: 1659387095
    nsecs: 408734262
  frame_id: "/dev/input/js0"
axes: [-0.0, -0.0, 0.0, -0.0, -0.0, 0.2687443792819977, -0.0, -0.0]
buttons: [0, 0, 0, 0, 0, 0, 0, 0, 0, 0, 0]
---
header: 
  seq: 414
  stamp: 
    secs: 1659387095
    nsecs: 496752672
  frame_id: "/dev/input/js0"
axes: [-0.0, -0.0, 0.0, -0.0, -0.0, 0.28522437810897827, -0.0, -0.0]
buttons: [0, 0, 0, 0, 0, 0, 0, 0, 0, 0, 0]
---
header: 
  seq: 415
  stamp: 
    secs: 1659387095
    nsecs: 520737354
  frame_id: "/dev/input/js0"
axes: [-0.0, -0.0, 0.0, -0.0, -0.0, 0.2996484041213989, -0.0, -0.0]
buttons: [0, 0, 0, 0, 0, 0, 0, 0, 0, 0, 0]
---
header: 
  seq: 416
  stamp: 
    secs: 1659387095
    nsecs: 536830616
  frame_id: "/dev/input/js0"
axes: [-0.0, -0.0, 0.0, -0.0, -0.0, 0.3161284029483795, -0.0, -0.0]
buttons: [0, 0, 0, 0, 0, 0, 0, 0, 0, 0, 0]
---
header: 
  seq: 417
  stamp: 
    secs: 1659387095
    nsecs: 548825253
  frame_id: "/dev/input/js0"
axes: [-0.0, -0.0, 0.0, -0.0, -0.0, 0.33466437458992004, -0.0, -0.0]
buttons: [0, 0, 0, 0, 0, 0, 0, 0, 0, 0, 0]
---
header: 
  seq: 418
  stamp: 
    secs: 1659387095
    nsecs: 716768285
  frame_id: "/dev/input/js0"
axes: [-0.0, -0.0, 0.0, -0.0, -0.0, 0.3490883708000183, -0.0, -0.0]
buttons: [0, 0, 0, 0, 0, 0, 0, 0, 0, 0, 0]
---
header: 
  seq: 419
  stamp: 
    secs: 1659387096
    nsecs:  60982057
  frame_id: "/dev/input/js0"
axes: [-0.0, -0.0, 0.0, -0.0, -0.0, 0.36968034505844116, -0.0, -0.0]
buttons: [0, 0, 0, 0, 0, 0, 0, 0, 0, 0, 0]
---
header: 
  seq: 420
  stamp: 
    secs: 1659387096
    nsecs:  64868108
  frame_id: "/dev/input/js0"
axes: [-0.0, -0.0, 0.0, -0.0, -0.0, 0.38410434126853943, -0.0, -0.0]
buttons: [0, 0, 0, 0, 0, 0, 0, 0, 0, 0, 0]
---
header: 
  seq: 421
  stamp: 
    secs: 1659387096
    nsecs:  68861435
  frame_id: "/dev/input/js0"
axes: [-0.0, -0.0, 0.0, -0.0, -0.0, 0.40264034271240234, -0.0, -0.0]
buttons: [0, 0, 0, 0, 0, 0, 0, 0, 0, 0, 0]
---
header: 
  seq: 422
  stamp: 
    secs: 1659387096
    nsecs:  72835473
  frame_id: "/dev/input/js0"
